Instance,Configuration,Seed,Target,BestSol,TimeMS,Iteration
instance_n300_sd10_0,TTT1,313,110,110,1278,0
instance_n300_sd10_0,TTT1,254,110,110,1128,0
instance_n300_sd10_0,TTT1,904,110,110,1329,0
instance_n300_sd10_0,TTT1,569,110,110,285,0
instance_n300_sd10_0,TTT1,434,110,108,976,0
instance_n300_sd10_0,TTT1,434,110,109,21971,20000
instance_n300_sd10_0,TTT1,434,110,110,22742,10288
instance_n300_sd10_0,TTT1,978,110,107,284,0
instance_n300_sd10_0,TTT1,978,110,108,1057,258
instance_n300_sd10_0,TTT1,978,110,109,1075,259
instance_n300_sd10_0,TTT1,978,110,110,21210,20000
instance_n300_sd10_0,TTT1,985,110,107,1382,0
instance_n300_sd10_0,TTT1,985,110,108,2335,222
instance_n300_sd10_0,TTT1,985,110,110,23161,20000
instance_n300_sd10_0,TTT1,847,110,107,1425,0
instance_n300_sd10_0,TTT1,847,110,108,2111,204
instance_n300_sd10_0,TTT1,847,110,109,2583,405
instance_n300_sd10_0,TTT1,847,110,110,23250,20000
instance_n300_sd10_0,TTT1,473,110,107,183,0
instance_n300_sd10_0,TTT1,473,110,108,928,258
instance_n300_sd10_0,TTT1,473,110,109,934,259
instance_n300_sd10_0,TTT1,473,110,110,20997,20000
instance_n300_sd10_0,TTT1,588,110,107,1327,0
instance_n300_sd10_0,TTT1,588,110,110,23375,20000
instance_n300_sd10_0,TTT1,606,110,108,1177,0
instance_n300_sd10_0,TTT1,606,110,109,2958,566
instance_n300_sd10_0,TTT1,606,110,110,23244,20000
instance_n300_sd10_0,TTT1,234,110,110,201,0
instance_n300_sd10_0,TTT1,748,110,106,230,0
instance_n300_sd10_0,TTT1,748,110,107,887,266
instance_n300_sd10_0,TTT1,748,110,108,899,267
instance_n300_sd10_0,TTT1,748,110,110,21935,20000
instance_n300_sd10_0,TTT1,262,110,110,283,0
instance_n300_sd10_0,TTT1,332,110,110,191,0
instance_n300_sd10_0,TTT1,263,110,109,295,0
instance_n300_sd10_0,TTT1,263,110,110,907,258
instance_n300_sd10_0,TTT1,592,110,109,320,0
instance_n300_sd10_0,TTT1,592,110,110,992,278
instance_n300_sd10_0,TTT1,99,110,110,179,0
instance_n300_sd10_0,TTT1,562,110,109,250,0
instance_n300_sd10_0,TTT1,562,110,110,1299,512
instance_n300_sd10_0,TTT1,959,110,110,167,0
instance_n300_sd10_0,TTT1,674,110,112,202,0
instance_n300_sd10_0,TTT1,376,110,108,185,0
instance_n300_sd10_0,TTT1,376,110,109,1051,430
instance_n300_sd10_0,TTT1,376,110,110,1053,431
instance_n300_sd10_0,TTT1,298,110,110,167,0
instance_n300_sd10_0,TTT1,302,110,110,171,0
instance_n300_sd10_0,TTT1,153,110,109,172,0
instance_n300_sd10_0,TTT1,153,110,110,1657,600
instance_n300_sd10_0,TTT1,317,110,107,188,0
instance_n300_sd10_0,TTT1,317,110,108,904,266
instance_n300_sd10_0,TTT1,317,110,109,907,267
instance_n300_sd10_0,TTT1,317,110,110,19523,20000
instance_n300_sd10_0,TTT1,596,110,106,278,0
instance_n300_sd10_0,TTT1,596,110,107,736,206
instance_n300_sd10_0,TTT1,596,110,108,1313,509
instance_n300_sd10_0,TTT1,596,110,110,19430,20000
instance_n300_sd10_0,TTT1,189,110,107,167,0
instance_n300_sd10_0,TTT1,189,110,108,674,282
instance_n300_sd10_0,TTT1,189,110,109,1383,629
instance_n300_sd10_0,TTT1,189,110,110,19297,20000
instance_n300_sd10_0,TTT1,955,110,111,163,0
instance_n300_sd10_0,TTT1,363,110,109,173,0
instance_n300_sd10_0,TTT1,363,110,110,760,278
instance_n300_sd10_0,TTT1,310,110,106,180,0
instance_n300_sd10_0,TTT1,310,110,107,1157,512
instance_n300_sd10_0,TTT1,310,110,108,1160,513
instance_n300_sd10_0,TTT1,310,110,110,19587,20000
instance_n300_sd10_0,TTT1,820,110,110,176,0
instance_n300_sd10_0,TTT1,834,110,110,160,0
instance_n300_sd10_0,TTT1,854,110,109,247,0
instance_n300_sd10_0,TTT1,854,110,111,19248,20000
instance_n300_sd10_0,TTT1,437,110,106,181,0
instance_n300_sd10_0,TTT1,437,110,107,6923,2858
instance_n300_sd10_0,TTT1,437,110,108,6926,2859
instance_n300_sd10_0,TTT1,437,110,110,19664,20000
instance_n300_sd10_0,TTT1,477,110,110,170,0
instance_n300_sd10_0,TTT1,737,110,108,229,0
instance_n300_sd10_0,TTT1,737,110,109,725,258
instance_n300_sd10_0,TTT1,737,110,110,728,259
instance_n300_sd10_0,TTT1,477,110,110,207,0
instance_n300_sd10_0,TTT1,800,110,105,164,0
instance_n300_sd10_0,TTT1,800,110,106,1235,512
instance_n300_sd10_0,TTT1,800,110,107,1238,513
instance_n300_sd10_0,TTT1,800,110,110,19662,20000
instance_n300_sd10_0,TTT1,205,110,108,177,0
instance_n300_sd10_0,TTT1,205,110,109,1148,306
instance_n300_sd10_0,TTT1,205,110,110,21547,20000
instance_n300_sd10_0,TTT1,592,110,109,184,0
instance_n300_sd10_0,TTT1,592,110,110,757,278
instance_n300_sd10_0,TTT1,888,110,108,180,0
instance_n300_sd10_0,TTT1,888,110,109,675,258
instance_n300_sd10_0,TTT1,888,110,110,678,259
instance_n300_sd10_0,TTT1,357,110,110,175,0
instance_n300_sd10_0,TTT1,500,110,108,169,0
instance_n300_sd10_0,TTT1,500,110,109,708,276
instance_n300_sd10_0,TTT1,500,110,110,711,277
instance_n300_sd10_0,TTT2,333,110,108,166,0
instance_n300_sd10_0,TTT2,333,110,109,720,258
instance_n300_sd10_0,TTT2,333,110,110,723,259
instance_n300_sd10_0,TTT1,6,110,108,174,0
instance_n300_sd10_0,TTT1,6,110,110,19178,20000
instance_n300_sd10_0,TTT1,689,110,106,163,0
instance_n300_sd10_0,TTT1,689,110,107,497,176
instance_n300_sd10_0,TTT1,689,110,108,500,177
instance_n300_sd10_0,TTT1,689,110,110,18796,20000
instance_n300_sd10_0,TTT2,536,110,110,164,0
instance_n300_sd10_0,TTT2,345,110,110,157,0
instance_n300_sd10_0,TTT2,55,110,108,166,0
instance_n300_sd10_0,TTT2,55,110,109,1393,568
instance_n300_sd10_0,TTT2,55,110,110,1396,569
instance_n300_sd10_0,TTT1,75,110,107,183,0
instance_n300_sd10_0,TTT1,75,110,108,1078,416
instance_n300_sd10_0,TTT1,75,110,109,1081,417
instance_n300_sd10_0,TTT1,75,110,110,19719,20000
instance_n300_sd10_0,TTT1,660,110,109,167,0
instance_n300_sd10_0,TTT1,660,110,110,19250,20000
instance_n300_sd10_0,TTT1,415,110,107,163,0
instance_n300_sd10_0,TTT1,415,110,108,747,258
instance_n300_sd10_0,TTT1,415,110,109,751,259
instance_n300_sd10_0,TTT1,415,110,110,19702,20000
instance_n300_sd10_0,TTT2,229,110,109,199,0
instance_n300_sd10_0,TTT2,229,110,110,708,258
instance_n300_sd10_0,TTT2,884,110,109,162,0
instance_n300_sd10_0,TTT2,884,110,110,713,262
instance_n300_sd10_0,TTT2,600,110,109,185,0
instance_n300_sd10_0,TTT2,600,110,110,702,278
instance_n300_sd10_0,TTT2,486,110,110,163,0
instance_n300_sd10_0,TTT2,683,110,110,243,0
instance_n300_sd10_0,TTT2,996,110,110,163,0
instance_n300_sd10_0,TTT1,220,110,107,163,0
instance_n300_sd10_0,TTT1,220,110,110,19221,20000
instance_n300_sd10_0,TTT2,452,110,105,179,0
instance_n300_sd10_0,TTT2,452,110,106,777,258
instance_n300_sd10_0,TTT2,452,110,107,780,259
instance_n300_sd10_0,TTT2,452,110,110,19428,20000
instance_n300_sd10_0,TTT2,676,110,105,166,0
instance_n300_sd10_0,TTT2,676,110,106,1136,540
instance_n300_sd10_0,TTT2,676,110,107,1139,541
instance_n300_sd10_0,TTT2,676,110,110,19232,20000
instance_n300_sd10_0,TTT2,358,110,107,166,0
instance_n300_sd10_0,TTT2,358,110,108,661,258
instance_n300_sd10_0,TTT2,358,110,109,664,259
instance_n300_sd10_0,TTT2,358,110,110,19092,20000
instance_n300_sd10_0,TTT2,504,110,106,184,0
instance_n300_sd10_0,TTT2,504,110,107,1047,430
instance_n300_sd10_0,TTT2,504,110,108,1050,431
instance_n300_sd10_0,TTT2,504,110,110,18998,20000
instance_n300_sd10_0,TTT2,859,110,109,161,0
instance_n300_sd10_0,TTT2,859,110,110,1249,568
instance_n300_sd10_0,TTT2,151,110,105,161,0
instance_n300_sd10_0,TTT2,151,110,106,835,344
instance_n300_sd10_0,TTT2,151,110,107,837,345
instance_n300_sd10_0,TTT2,151,110,110,19439,20000
instance_n300_sd10_0,TTT2,598,110,105,244,0
instance_n300_sd10_0,TTT2,598,110,106,1354,568
instance_n300_sd10_0,TTT2,598,110,107,1357,569
instance_n300_sd10_0,TTT2,598,110,110,19098,20000
instance_n300_sd10_0,TTT2,514,110,105,161,0
instance_n300_sd10_0,TTT2,514,110,106,636,258
instance_n300_sd10_0,TTT2,514,110,107,639,259
instance_n300_sd10_0,TTT2,514,110,110,18565,20000
instance_n300_sd10_0,TTT2,908,110,106,157,0
instance_n300_sd10_0,TTT2,908,110,107,931,364
instance_n300_sd10_0,TTT2,908,110,108,934,365
instance_n300_sd10_0,TTT2,908,110,109,936,366
instance_n300_sd10_0,TTT2,908,110,110,20626,20000
instance_n300_sd10_0,TTT2,528,110,107,171,0
instance_n300_sd10_0,TTT2,528,110,108,599,178
instance_n300_sd10_0,TTT2,528,110,109,748,267
instance_n300_sd10_0,TTT2,528,110,110,18651,20000
instance_n300_sd10_0,TTT2,865,110,107,164,0
instance_n300_sd10_0,TTT2,865,110,108,527,180
instance_n300_sd10_0,TTT2,865,110,109,530,181
instance_n300_sd10_0,TTT2,865,110,110,19467,20000
instance_n300_sd10_0,TTT2,731,110,110,176,0
instance_n300_sd10_0,TTT2,192,110,108,179,0
instance_n300_sd10_0,TTT2,192,110,109,716,258
instance_n300_sd10_0,TTT2,192,110,110,719,259
instance_n300_sd10_0,TTT2,716,110,109,176,0
instance_n300_sd10_0,TTT2,716,110,110,18843,20000
instance_n300_sd10_0,TTT2,615,110,106,163,0
instance_n300_sd10_0,TTT2,615,110,107,642,258
instance_n300_sd10_0,TTT2,615,110,108,645,259
instance_n300_sd10_0,TTT2,615,110,110,18347,20000
instance_n300_sd10_0,TTT2,562,110,109,165,0
instance_n300_sd10_0,TTT2,562,110,110,1109,512
instance_n300_sd10_0,TTT2,58,110,107,155,0
instance_n300_sd10_0,TTT2,58,110,108,636,258
instance_n300_sd10_0,TTT2,58,110,109,638,259
instance_n300_sd10_0,TTT2,58,110,110,19139,20000
instance_n300_sd10_0,TTT2,485,110,110,170,0
instance_n300_sd10_0,TTT2,522,110,107,159,0
instance_n300_sd10_0,TTT2,522,110,108,659,276
instance_n300_sd10_0,TTT2,522,110,109,662,277
instance_n300_sd10_0,TTT2,522,110,110,19591,20000
instance_n300_sd10_0,TTT2,87,110,106,156,0
instance_n300_sd10_0,TTT2,87,110,107,488,186
instance_n300_sd10_0,TTT2,87,110,108,491,187
instance_n300_sd10_0,TTT2,87,110,111,19548,20000
instance_n300_sd10_0,TTT2,695,110,110,236,0
instance_n300_sd10_0,TTT2,379,110,108,252,0
instance_n300_sd10_0,TTT2,379,110,109,735,258
instance_n300_sd10_0,TTT2,379,110,110,738,259
instance_n300_sd10_0,TTT2,688,110,105,226,0
instance_n300_sd10_0,TTT2,688,110,106,733,286
instance_n300_sd10_0,TTT2,688,110,107,1373,633
instance_n300_sd10_0,TTT2,688,110,110,18621,20000
instance_n300_sd10_0,TTT2,797,110,107,165,0
instance_n300_sd10_0,TTT2,797,110,108,725,258
instance_n300_sd10_0,TTT2,797,110,109,728,259
instance_n300_sd10_0,TTT2,797,110,110,18920,20000
instance_n300_sd10_0,TTT2,1,110,107,187,0
instance_n300_sd10_0,TTT2,1,110,108,659,180
instance_n300_sd10_0,TTT2,1,110,109,662,181
instance_n300_sd10_0,TTT2,1,110,110,19782,20000
instance_n300_sd10_0,TTT2,241,110,107,164,0
instance_n300_sd10_0,TTT2,241,110,108,644,258
instance_n300_sd10_0,TTT2,241,110,109,647,259
instance_n300_sd10_0,TTT2,241,110,110,19238,20000
instance_n300_sd10_0,TTT2,620,110,110,166,0
instance_n300_sd10_0,TTT2,53,110,110,171,0
instance_n300_sd10_0,TTT2,708,110,105,164,0
instance_n300_sd10_0,TTT2,708,110,106,520,180
instance_n300_sd10_0,TTT2,708,110,107,523,181
instance_n300_sd10_0,TTT2,708,110,110,19384,20000
instance_n300_sd10_0,TTT2,69,110,107,169,0
instance_n300_sd10_0,TTT2,69,110,110,19734,20000
instance_n300_sd10_0,TTT2,101,110,109,156,0
instance_n300_sd10_0,TTT2,101,110,110,918,430
instance_n300_sd10_0,TTT2,759,110,107,161,0
instance_n300_sd10_0,TTT2,759,110,108,694,276
instance_n300_sd10_0,TTT2,759,110,109,697,277
instance_n300_sd10_0,TTT2,759,110,111,19083,20000
instance_n300_sd10_0,TTT2,436,110,108,164,0
instance_n300_sd10_0,TTT2,436,110,109,539,176
instance_n300_sd10_0,TTT2,436,110,110,542,177
instance_n300_sd10_0,TTT3,674,110,112,165,0
instance_n300_sd10_0,TTT2,810,110,105,178,0
instance_n300_sd10_0,TTT2,810,110,106,751,258
instance_n300_sd10_0,TTT2,810,110,107,754,259
instance_n300_sd10_0,TTT2,810,110,110,19479,20000
instance_n300_sd10_0,TTT2,601,110,108,162,0
instance_n300_sd10_0,TTT2,601,110,109,1253,530
instance_n300_sd10_0,TTT2,601,110,110,1256,531
instance_n300_sd10_0,TTT2,650,110,109,213,0
instance_n300_sd10_0,TTT2,650,110,110,1383,622
instance_n300_sd10_0,TTT2,617,110,109,231,0
instance_n300_sd10_0,TTT2,617,110,110,19092,20000
instance_n300_sd10_0,TTT2,526,110,105,181,0
instance_n300_sd10_0,TTT2,526,110,106,731,276
instance_n300_sd10_0,TTT2,526,110,107,734,277
instance_n300_sd10_0,TTT2,526,110,110,19105,20000
instance_n300_sd10_0,TTT2,374,110,107,164,0
instance_n300_sd10_0,TTT2,374,110,108,657,258
instance_n300_sd10_0,TTT2,374,110,109,660,259
instance_n300_sd10_0,TTT2,374,110,110,18764,20000
instance_n300_sd10_0,TTT3,508,110,111,186,0
instance_n300_sd10_0,TTT3,494,110,108,165,0
instance_n300_sd10_0,TTT3,494,110,109,727,262
instance_n300_sd10_0,TTT3,494,110,110,730,263
instance_n300_sd10_0,TTT3,903,110,110,183,0
instance_n300_sd10_0,TTT3,543,110,108,161,0
instance_n300_sd10_0,TTT3,543,110,109,1160,512
instance_n300_sd10_0,TTT3,543,110,110,1163,513
instance_n300_sd10_0,TTT3,547,110,108,222,0
instance_n300_sd10_0,TTT3,547,110,109,861,342
instance_n300_sd10_0,TTT3,547,110,110,864,343
instance_n300_sd10_0,TTT3,180,110,109,160,0
instance_n300_sd10_0,TTT3,180,110,110,880,342
instance_n300_sd10_0,TTT2,825,110,107,178,0
instance_n300_sd10_0,TTT2,825,110,108,694,270
instance_n300_sd10_0,TTT2,825,110,109,697,271
instance_n300_sd10_0,TTT2,825,110,111,19308,20000
instance_n300_sd10_0,TTT3,857,110,108,160,0
instance_n300_sd10_0,TTT3,857,110,109,677,262
instance_n300_sd10_0,TTT3,857,110,110,680,263
instance_n300_sd10_0,TTT3,366,110,110,161,0
instance_n300_sd10_0,TTT3,377,110,110,190,0
instance_n300_sd10_0,TTT3,94,110,107,171,0
instance_n300_sd10_0,TTT3,94,110,108,1182,468
instance_n300_sd10_0,TTT3,94,110,109,1186,469
instance_n300_sd10_0,TTT3,94,110,110,18649,20000
instance_n300_sd10_0,TTT3,232,110,107,162,0
instance_n300_sd10_0,TTT3,232,110,108,702,258
instance_n300_sd10_0,TTT3,232,110,109,705,259
instance_n300_sd10_0,TTT3,232,110,110,18768,20000
instance_n300_sd10_0,TTT3,745,110,108,169,0
instance_n300_sd10_0,TTT3,745,110,109,652,258
instance_n300_sd10_0,TTT3,745,110,110,655,259
instance_n300_sd10_0,TTT3,450,110,112,176,0
instance_n300_sd10_0,TTT3,575,110,106,171,0
instance_n300_sd10_0,TTT3,575,110,107,687,258
instance_n300_sd10_0,TTT3,575,110,108,690,259
instance_n300_sd10_0,TTT3,575,110,110,19008,20000
instance_n300_sd10_0,TTT3,569,110,110,175,0
instance_n300_sd10_0,TTT3,8,110,108,180,0
instance_n300_sd10_0,TTT3,8,110,109,759,258
instance_n300_sd10_0,TTT3,8,110,110,762,259
instance_n300_sd10_0,TTT3,624,110,105,164,0
instance_n300_sd10_0,TTT3,624,110,106,3077,1510
instance_n300_sd10_0,TTT3,624,110,107,3080,1511
instance_n300_sd10_0,TTT3,624,110,110,19107,20000
instance_n300_sd10_0,TTT3,967,110,106,183,0
instance_n300_sd10_0,TTT3,967,110,107,766,276
instance_n300_sd10_0,TTT3,967,110,108,769,277
instance_n300_sd10_0,TTT3,967,110,110,19005,20000
instance_n300_sd10_0,TTT3,116,110,108,170,0
instance_n300_sd10_0,TTT3,116,110,109,723,258
instance_n300_sd10_0,TTT3,116,110,110,726,259
instance_n300_sd10_0,TTT3,621,110,108,235,0
instance_n300_sd10_0,TTT3,621,110,109,767,258
instance_n300_sd10_0,TTT3,621,110,110,770,259
instance_n300_sd10_0,TTT3,234,110,110,178,0
instance_n300_sd10_0,TTT3,151,110,105,169,0
instance_n300_sd10_0,TTT3,151,110,106,924,344
instance_n300_sd10_0,TTT3,151,110,107,927,345
instance_n300_sd10_0,TTT3,151,110,110,19567,20000
instance_n300_sd10_0,TTT3,833,110,107,157,0
instance_n300_sd10_0,TTT3,833,110,108,589,204
instance_n300_sd10_0,TTT3,833,110,109,994,407
instance_n300_sd10_0,TTT3,833,110,110,18833,20000
instance_n300_sd10_0,TTT3,19,110,109,183,0
instance_n300_sd10_0,TTT3,19,110,110,843,268
instance_n300_sd10_0,TTT3,271,110,109,179,0
instance_n300_sd10_0,TTT3,271,110,110,2393,1128
instance_n300_sd10_0,TTT3,705,110,108,160,0
instance_n300_sd10_0,TTT3,705,110,109,1124,544
instance_n300_sd10_0,TTT3,705,110,110,1127,545
instance_n300_sd10_0,TTT3,295,110,110,159,0
instance_n300_sd10_0,TTT3,856,110,109,184,0
instance_n300_sd10_0,TTT3,856,110,110,637,258
instance_n300_sd10_0,TTT3,864,110,108,165,0
instance_n300_sd10_0,TTT3,864,110,109,501,184
instance_n300_sd10_0,TTT3,864,110,110,504,185
instance_n300_sd10_0,TTT3,203,110,107,226,0
instance_n300_sd10_0,TTT3,203,110,108,772,258
instance_n300_sd10_0,TTT3,203,110,109,775,259
instance_n300_sd10_0,TTT3,203,110,110,18971,20000
instance_n300_sd10_0,TTT3,490,110,108,227,0
instance_n300_sd10_0,TTT3,490,110,110,19861,20000
instance_n300_sd10_0,TTT3,76,110,107,220,0
instance_n300_sd10_0,TTT3,76,110,108,747,258
instance_n300_sd10_0,TTT3,76,110,109,750,259
instance_n300_sd10_0,TTT3,76,110,110,19867,20000
instance_n300_sd10_0,TTT3,96,110,105,157,0
instance_n300_sd10_0,TTT3,96,110,106,1116,466
instance_n300_sd10_0,TTT3,96,110,107,1119,467
instance_n300_sd10_0,TTT3,96,110,110,19601,20000
instance_n300_sd10_0,TTT3,436,110,108,203,0
instance_n300_sd10_0,TTT3,436,110,109,537,176
instance_n300_sd10_0,TTT3,436,110,110,539,177
instance_n300_sd10_0,TTT3,699,110,107,239,0
instance_n300_sd10_0,TTT3,699,110,108,699,258
instance_n300_sd10_0,TTT3,699,110,109,702,259
instance_n300_sd10_0,TTT3,699,110,111,19441,20000
instance_n300_sd10_0,TTT3,362,110,109,182,0
instance_n300_sd10_0,TTT3,362,110,110,867,276
instance_n300_sd10_0,TTT3,863,110,110,177,0
instance_n300_sd10_0,TTT3,528,110,107,216,0
instance_n300_sd10_0,TTT3,528,110,108,558,178
instance_n300_sd10_0,TTT3,528,110,109,742,267
instance_n300_sd10_0,TTT3,528,110,110,20020,20000
instance_n300_sd10_0,TTT3,550,110,107,165,0
instance_n300_sd10_0,TTT3,550,110,108,789,276
instance_n300_sd10_0,TTT3,550,110,110,19230,20000
instance_n300_sd10_0,TTT3,291,110,107,164,0
instance_n300_sd10_0,TTT3,291,110,108,676,280
instance_n300_sd10_0,TTT3,291,110,109,679,281
instance_n300_sd10_0,TTT3,291,110,110,19410,20000
instance_n300_sd10_0,TTT3,892,110,108,181,0
instance_n300_sd10_0,TTT3,892,110,109,1294,568
instance_n300_sd10_0,TTT3,892,110,110,1298,569
instance_n300_sd10_0,TTT3,16,110,106,210,0
instance_n300_sd10_0,TTT3,16,110,107,1500,610
instance_n300_sd10_0,TTT3,16,110,108,1503,611
instance_n300_sd10_0,TTT3,16,110,110,19587,20000
instance_n300_sd10_0,TTT3,288,110,109,196,0
instance_n300_sd10_0,TTT3,288,110,110,19877,20000
instance_n300_sd10_0,TTT3,511,110,105,162,0
instance_n300_sd10_0,TTT3,511,110,106,750,276
instance_n300_sd10_0,TTT3,511,110,107,753,277
instance_n300_sd10_0,TTT3,511,110,110,19721,20000
instance_n300_sd10_0,TTT4,823,110,110,163,0
instance_n300_sd10_0,TTT4,97,110,110,160,0
instance_n300_sd10_0,TTT4,842,110,108,181,0
instance_n300_sd10_0,TTT4,842,110,109,643,222
instance_n300_sd10_0,TTT4,842,110,110,1476,569
instance_n300_sd10_0,TTT3,28,110,106,158,0
instance_n300_sd10_0,TTT3,28,110,107,1065,382
instance_n300_sd10_0,TTT3,28,110,108,1069,383
instance_n300_sd10_0,TTT3,28,110,110,21887,20000
instance_n300_sd10_0,TTT3,679,110,107,163,0
instance_n300_sd10_0,TTT3,679,110,108,1192,568
instance_n300_sd10_0,TTT3,679,110,109,1196,569
instance_n300_sd10_0,TTT3,679,110,110,19318,20000
instance_n300_sd10_0,TTT3,95,110,107,157,0
instance_n300_sd10_0,TTT3,95,110,108,706,276
instance_n300_sd10_0,TTT3,95,110,110,19296,20000
instance_n300_sd10_0,TTT4,157,110,112,199,0
instance_n300_sd10_0,TTT4,307,110,111,163,0
instance_n300_sd10_0,TTT4,357,110,110,162,0
instance_n300_sd10_0,TTT3,590,110,108,167,0
instance_n300_sd10_0,TTT3,590,110,110,21121,20000
instance_n300_sd10_0,TTT4,849,110,108,161,0
instance_n300_sd10_0,TTT4,849,110,109,1427,512
instance_n300_sd10_0,TTT4,849,110,110,1430,513
instance_n300_sd10_0,TTT4,349,110,109,163,0
instance_n300_sd10_0,TTT4,349,110,110,760,276
instance_n300_sd10_0,TTT4,283,110,108,192,0
instance_n300_sd10_0,TTT4,283,110,109,704,276
instance_n300_sd10_0,TTT4,283,110,110,1343,623
instance_n300_sd10_0,TTT3,463,110,105,163,0
instance_n300_sd10_0,TTT3,463,110,106,1155,512
instance_n300_sd10_0,TTT3,463,110,107,1158,513
instance_n300_sd10_0,TTT3,463,110,110,20203,20000
instance_n300_sd10_0,TTT4,994,110,109,318,0
instance_n300_sd10_0,TTT4,994,110,110,19457,20000
instance_n300_sd10_0,TTT4,746,110,108,164,0
instance_n300_sd10_0,TTT4,746,110,109,649,258
instance_n300_sd10_0,TTT4,746,110,110,652,259
instance_n300_sd10_0,TTT4,888,110,108,226,0
instance_n300_sd10_0,TTT4,888,110,109,801,258
instance_n300_sd10_0,TTT4,888,110,110,804,259
instance_n300_sd10_0,TTT4,275,110,107,201,0
instance_n300_sd10_0,TTT4,275,110,108,698,258
instance_n300_sd10_0,TTT4,275,110,109,701,259
instance_n300_sd10_0,TTT4,275,110,110,19139,20000
instance_n300_sd10_0,TTT4,701,110,108,169,0
instance_n300_sd10_0,TTT4,701,110,110,19689,20000
instance_n300_sd10_0,TTT4,64,110,107,182,0
instance_n300_sd10_0,TTT4,64,110,110,19450,20000
instance_n300_sd10_0,TTT4,156,110,107,162,0
instance_n300_sd10_0,TTT4,156,110,108,539,184
instance_n300_sd10_0,TTT4,156,110,109,542,185
instance_n300_sd10_0,TTT4,156,110,111,19219,20000
instance_n300_sd10_0,TTT4,742,110,110,200,0
instance_n300_sd10_0,TTT4,696,110,109,184,0
instance_n300_sd10_0,TTT4,696,110,110,831,278
instance_n300_sd10_0,TTT4,957,110,107,194,0
instance_n300_sd10_0,TTT4,957,110,110,19861,20000
instance_n300_sd10_0,TTT4,770,110,109,164,0
instance_n300_sd10_0,TTT4,770,110,110,760,276
instance_n300_sd10_0,TTT4,229,110,109,201,0
instance_n300_sd10_0,TTT4,229,110,110,741,258
instance_n300_sd10_0,TTT4,695,110,110,159,0
instance_n300_sd10_0,TTT4,46,110,105,164,0
instance_n300_sd10_0,TTT4,46,110,110,21666,20000
instance_n300_sd10_0,TTT4,891,110,107,163,0
instance_n300_sd10_0,TTT4,891,110,108,673,276
instance_n300_sd10_0,TTT4,891,110,109,676,277
instance_n300_sd10_0,TTT4,891,110,110,19492,20000
instance_n300_sd10_0,TTT4,935,110,106,177,0
instance_n300_sd10_0,TTT4,935,110,107,1263,566
instance_n300_sd10_0,TTT4,935,110,110,20164,20000
instance_n300_sd10_0,TTT4,777,110,107,169,0
instance_n300_sd10_0,TTT4,777,110,108,728,258
instance_n300_sd10_0,TTT4,777,110,109,734,259
instance_n300_sd10_0,TTT4,777,110,110,19958,20000
instance_n300_sd10_0,TTT4,308,110,109,178,0
instance_n300_sd10_0,TTT4,308,110,110,20100,20000
instance_n300_sd10_0,TTT4,206,110,110,194,0
instance_n300_sd10_0,TTT4,998,110,110,160,0
instance_n300_sd10_0,TTT4,35,110,107,291,0
instance_n300_sd10_0,TTT4,35,110,108,1025,262
instance_n300_sd10_0,TTT4,35,110,109,1027,263
instance_n300_sd10_0,TTT4,35,110,110,19842,20000
instance_n300_sd10_0,TTT4,709,110,110,181,0
instance_n300_sd10_0,TTT4,102,110,108,187,0
instance_n300_sd10_0,TTT4,102,110,109,770,276
instance_n300_sd10_0,TTT4,102,110,110,775,277
instance_n300_sd10_0,TTT4,370,110,107,163,0
instance_n300_sd10_0,TTT4,370,110,108,1220,500
instance_n300_sd10_0,TTT4,370,110,109,1404,599
instance_n300_sd10_0,TTT4,370,110,110,20073,20000
instance_n300_sd10_0,TTT4,199,110,111,187,0
instance_n300_sd10_0,TTT4,691,110,110,161,0
instance_n300_sd10_0,TTT4,38,110,111,165,0
instance_n300_sd10_0,TTT4,260,110,110,223,0
instance_n300_sd10_0,TTT4,33,110,109,158,0
instance_n300_sd10_0,TTT4,33,110,110,635,258
instance_n300_sd10_0,TTT4,432,110,110,163,0
instance_n300_sd10_0,TTT4,708,110,105,162,0
instance_n300_sd10_0,TTT4,708,110,106,509,180
instance_n300_sd10_0,TTT4,708,110,107,511,181
instance_n300_sd10_0,TTT4,708,110,110,19773,20000
instance_n300_sd10_0,TTT4,181,110,109,184,0
instance_n300_sd10_0,TTT4,181,110,110,741,276
instance_n300_sd10_0,TTT4,709,110,110,181,0
instance_n300_sd10_0,TTT4,440,110,106,171,0
instance_n300_sd10_0,TTT4,440,110,107,1538,614
instance_n300_sd10_0,TTT4,440,110,108,1541,615
instance_n300_sd10_0,TTT4,440,110,110,20118,20000
instance_n300_sd10_0,TTT4,340,110,106,161,0
instance_n300_sd10_0,TTT4,340,110,107,738,276
instance_n300_sd10_0,TTT4,340,110,110,19943,20000
instance_n300_sd10_0,TTT4,935,110,106,182,0
instance_n300_sd10_0,TTT4,935,110,107,1352,566
instance_n300_sd10_0,TTT4,935,110,110,16583,20000
instance_n300_sd10_0,TTT4,587,110,107,180,0
instance_n300_sd10_0,TTT4,587,110,108,758,270
instance_n300_sd10_0,TTT4,587,110,110,16810,20000
instance_n300_sd10_0,TTT4,528,110,107,186,0
instance_n300_sd10_0,TTT4,528,110,108,521,178
instance_n300_sd10_0,TTT4,528,110,109,669,267
instance_n300_sd10_0,TTT4,528,110,110,16732,20000
instance_n300_sd10_0,TTT4,805,110,108,367,0
instance_n300_sd10_0,TTT4,805,110,109,15671,20000
instance_n300_sd10_0,TTT4,805,110,110,16063,10382
instance_n300_sd10_0,TTT4,315,110,107,173,0
instance_n300_sd10_0,TTT4,315,110,108,756,258
instance_n300_sd10_0,TTT4,315,110,109,759,259
instance_n300_sd10_0,TTT4,315,110,110,15390,20000
instance_n300_sd10_0,TTT4,266,110,106,156,0
instance_n300_sd10_0,TTT4,266,110,107,722,272
instance_n300_sd10_0,TTT4,266,110,110,14520,20000
